[
  {
    "name":"Plongeoirs naturels les Vans",
    "lat":44.408731,
    "long":4.183008
  },
  {
    "name":"Mazet plage",
    "lat":44.397087,
    "long":4.193510
  },
  {
    "name":"Pont du gard",
    "lat":43.94760,
    "long":4.53473
  },
  {
    "name":"Cascades du Sautadet",
    "lat":44.188290,
    "long":4.526750
  },
  {
    "name":"Lac de Sainte Croix",
    "lat":43.801485,
    "long":6.250639
  }
]
